{"version": 0.6, "generator": "Overpass API 0.7.56.9 76e5016d", "osm3s": {"timestamp_osm_base": "2021-10-16T20:37:43Z", "copyright": "The data included in this document is from www.openstreetmap.org. The data is made available under ODbL."}, "elements": [{"type": "node", "id": 2386938739, "lat": -23.2029887, "lon": -46.1603988, "tags": {"amenity": "police", "name": "Pol\u00edcia Militar"}}, {"type": "node", "id": 2386944975, "lat": -23.2367358, "lon": -46.1246227, "tags": {"amenity": "police", "name": "Pol\u00edcia Rodovi\u00e1ria Federal", "police": "traffic_police"}}, {"type": "node", "id": 2975062725, "lat": -23.369747, "lon": -46.1358466}, {"type": "node", "id": 2975062726, "lat": -23.3697925, "lon": -46.1357974}, {"type": "node", "id": 2975062728, "lat": -23.3698736, "lon": -46.1359853}, {"type": "node", "id": 2975062729, "lat": -23.3699191, "lon": -46.135936}, {"type": "node", "id": 7757343920, "lat": -23.2033251, "lon": -46.1554838}, {"type": "node", "id": 7757343921, "lat": -23.2034032, "lon": -46.1553064}, {"type": "node", "id": 7757343922, "lat": -23.2035255, "lon": -46.1553767}, {"type": "node", "id": 7757343923, "lat": -23.2034321, "lon": -46.1555522}, {"type": "node", "id": 7816040045, "lat": -23.3341307, "lon": -46.1413808}, {"type": "node", "id": 7816040046, "lat": -23.3342154, "lon": -46.1413262}, {"type": "node", "id": 7816040047, "lat": -23.3341739, "lon": -46.141249}, {"type": "node", "id": 7816040048, "lat": -23.3340875, "lon": -46.141296}, {"type": "way", "id": 293934020, "nodes": [2975062728, 2975062729, 2975062726, 2975062725, 2975062728], "tags": {"amenity": "police", "building": "yes", "name": "Policia Rodovi\u00e1ria Estadual", "police": "traffic_police"}}, {"type": "way", "id": 830835824, "nodes": [7757343920, 7757343921, 7757343922, 7757343923, 7757343920], "tags": {"addr:housenumber": "430", "addr:street": "Avenida  Francisco Louren\u00e7o", "addr:suburb": "Centro", "amenity": "police", "building": "yes", "name": "Delegacia da Pol\u00edcia Civil", "operator": "Secretaria de Seguran\u00e7a P\u00fablica do Estado de S\u00e3o Paulo"}}, {"type": "way", "id": 837440538, "nodes": [7816040045, 7816040046, 7816040047, 7816040048, 7816040045], "tags": {"addr:street": "Rodovia Presidente Dutra", "amenity": "police", "building": "yes", "name": "Pol\u00edcia Rodovi\u00e1ria Federal"}}]}